{"ok": true, "meta": [], "results":[{ "id":5002, "address":"571 Courtlandt Av", "latitude":40.8170769363642, "longitude":-73.9193703979254, "label":"Neighborhood Cycle, Inc." },
{ "id":5008, "address":"178 Graham Av", "latitude":40.7078323364258, "longitude":-73.9429473876953, "label":"Graham Bicycle Discount Center" },
{ "id":5000, "address":"4055 White Plains Rd", "latitude":40.8901315927505, "longitude":-73.8593445718288, "label":"Arrow Cycle, Inc" },
{ "id":5001, "address":"33 E 170th St", "latitude":40.8400574326515, "longitude":-73.9171025902033, "label":"Crosstown Bicycles" },
{ "id":5006, "address":"133 Grand St", "latitude":40.7151374816895, "longitude":-73.9623031616211, "label":"Brooklyn Bicycle Doctor" },
{ "id":5003, "address":"3467 E Tremont Av", "latitude":40.8319282531738, "longitude":-73.8269805908203, "label":"Castle Hill Bicycle Center" },
{ "id":5004, "address":"2611 Westchester Av", "latitude":40.8414154052734, "longitude":-73.8409652709961, "label":"Westchester Bicycle Pro Shop" },
{ "id":5014, "address":"514 Court St", "latitude":40.676326751709, "longitude":-73.9990921020508, "label":"Court Cycles" },
{ "id":5012, "address":"1547 Broadway", "latitude":40.6863670349121, "longitude":-73.9160919189453, "label":"Terrific's Video and Bikes" },
{ "id":5010, "address":"35 Pearl St", "latitude":40.703938677907, "longitude":-73.9875139296055, "label":"Recycle-a-Bicycle" },
{ "id":5020, "address":"4622 7th Av", "latitude":40.6443901062012, "longitude":-74.0042266845703, "label":"Mr. C's Cycles" },
{ "id":5007, "address":"140 Havemeyer St", "latitude":40.7120246887207, "longitude":-73.9575576782227, "label":"Spokes & Strings" },
{ "id":5013, "address":"278 Atlantic Av", "latitude":40.6885871887207, "longitude":-73.9898910522461, "label":"Atlantic Bicycles" },
{ "id":5018, "address":"400 7th Av", "latitude":40.6648826599121, "longitude":-73.983642578125, "label":"On the Move" },
{ "id":5024, "address":"6304 20th Av", "latitude":40.6176643371582, "longitude":-73.9850387573242, "label":"Ferrara Cycle Shop" },
{ "id":5009, "address":"251 Bushwick Av", "latitude":40.7073211669922, "longitude":-73.9394989013672, "label":"Nelson's Bicycle Shop" },
{ "id":5021, "address":"4715 New Utrecht Av", "latitude":40.6377067565918, "longitude":-73.9946136474609, "label":"Weber's Bicycles" },
{ "id":5019, "address":"4220 8th Av", "latitude":40.6453323364258, "longitude":-73.9996719360352, "label":"Arnold's Bicycles" },
{ "id":5011, "address":"8916 3rd Av", "latitude":40.6210403442383, "longitude":-74.0323486328125, "label":"Bay Ridge Bicycle World" },
{ "id":5015, "address":"105 5th Av", "latitude":40.6793403625488, "longitude":-73.9781723022461, "label":"R&A Cycles" },
{ "id":5028, "address":"1580 Fulton St", "latitude":40.679500579834, "longitude":-73.9375839233398, "label":"Fulton Bikes" },
{ "id":5016, "address":"171 Park Av", "latitude":40.6963920593262, "longitude":-73.9726791381836, "label":"Bicycle Station" },
{ "id":5027, "address":"187 Wilson Av", "latitude":40.6995620727539, "longitude":-73.9232177734375, "label":"Bravo's Bike Repair" },
{ "id":5029, "address":"262 Driggs Av", "latitude":40.7227745056152, "longitude":-73.948356628418, "label":"B's Bikes" },
{ "id":5035, "address":"375 9th St", "latitude":40.668285369873, "longitude":-73.9839324951172, "label":"9th Street Cycles" },
{ "id":5033, "address":"1078 Manhattan Av", "latitude":40.7355155944824, "longitude":-73.9547882080078, "label":"Greenpoint Bikes" },
{ "id":5034, "address":"453 Graham Av", "latitude":40.7189178466797, "longitude":-73.9454498291016, "label":"King Kog" },
{ "id":5039, "address":"254 3rd Av", "latitude":40.6782417297363, "longitude":-73.9858322143555, "label":"718 Cyclery" },
{ "id":5041, "address":"56 Lincoln Rd", "latitude":40.6608235090971, "longitude":-73.9610318094492, "label":"Bike Life" },
{ "id":5040, "address":"257 Varet St", "latitude":40.7041022926569, "longitude":-73.934214413166, "label":"Post Bike Shop" },
{ "id":5047, "address":"8 Bennett Av", "latitude":40.8507607877254, "longitude":-73.9365881681442, "label":"Mani's Bicycle Shop" },
{ "id":5046, "address":"250 Dyckman St", "latitude":40.866400077939, "longitude":-73.9283799380064, "label":"Tread Bike Shop" },
{ "id":5053, "address":"231 W 96th St", "latitude":40.7944927364588, "longitude":-73.9712919294834, "label":"96th Street Metro Bikes" },
{ "id":5045, "address":"Brooklyn Bridge Park, Old Fulton St & Furman St", "latitude":40.7029023986724, "longitude":-73.9947259876335, "label":"Bike and Roll" },
{ "id":5051, "address":"2016 3rd Av", "latitude":40.7947082519531, "longitude":-73.9427337646484, "label":"Heavy Metal Bike Shop" },
{ "id":5052, "address":"896 Amsterdam Av", "latitude":40.79898878932, "longitude":-73.9668307453394, "label":"Champion Bicycles" },
{ "id":5056, "address":"1311 Lexington Av", "latitude":40.7808993011713, "longitude":-73.9544919133186, "label":"Metro Bicycles" },
{ "id":5005, "address":"202 W 242nd St", "latitude":40.8894201368093, "longitude":-73.8986590504646, "label":"United Spokes" },
{ "id":5022, "address":"673 Coney Island Av", "latitude":40.6410446166992, "longitude":-73.9689407348633, "label":"Brooklyn Bicycle Center" },
{ "id":5057, "address":"1690 2nd Av", "latitude":40.7788433879614, "longitude":-73.9509674906731, "label":"Danny's Cycles" },
{ "id":5023, "address":"1854 Flatbush Av", "latitude":40.6243782043457, "longitude":-73.9391937255859, "label":"Larry's Cycle Shop" },
{ "id":5058, "address":"1603 York Av", "latitude":40.7751312255859, "longitude":-73.9480514526367, "label":"NYCe Wheels" },
{ "id":5064, "address":"791 9th Av", "latitude":40.7652740478516, "longitude":-73.9880599975586, "label":"Manhattan Bicycles" },
{ "id":5062, "address":"265 W 72nd St", "latitude":40.7798652648926, "longitude":-73.9838638305664, "label":"Master Bike Shop" },
{ "id":5063, "address":"846 9th Av", "latitude":40.7667942345142, "longitude":-73.9864658564329, "label":"Liberty Bicycles" },
{ "id":5017, "address":"792 Union St", "latitude":40.6745796203613, "longitude":-73.9764404296875, "label":"Dixon's Bicycle Shop" },
{ "id":5026, "address":"2679 Coney Island Av", "latitude":40.5912055969238, "longitude":-73.9602661132813, "label":"Roy's Sheepshead Cycle" },
{ "id":5031, "address":"616 Grand St", "latitude":40.7110252380371, "longitude":-73.9475021362305, "label":"Affinity Cycles" },
{ "id":5067, "address":"Tavern on the Green parking lot, W 67th St", "latitude":40.7145500183105, "longitude":-74.0071182250977, "label":"Bike and Roll" },
{ "id":5055, "address":"430 Columbus Av", "latitude":40.7831878662109, "longitude":-73.9750289916992, "label":"Bicycle Renaissance" },
{ "id":5025, "address":"7308 5th Av", "latitude":40.6308860778809, "longitude":-74.0224151611328, "label":"Verrazano Bicycle Shop" },
{ "id":5030, "address":"64-B Lafayette Av", "latitude":40.6870682537556, "longitude":-73.9753273129463, "label":"Bespoke Bicycles" },
{ "id":5075, "address":"437 E 6th St", "latitude":40.7259101867676, "longitude":-73.9844665527344, "label":"Busy Bee Bikes" },
{ "id":5068, "address":"Pier A, Battery Park & West St", "latitude":40.7145500183105, "longitude":-74.0071182250977, "label":"Bike and Roll" },
{ "id":5073, "address":"235 E 34th St", "latitude":40.7452964782715, "longitude":-73.9763793945313, "label":"Sid's Bike Shop" },
{ "id":5070, "address":"360 W 47th St", "latitude":40.7610905170441, "longitude":-73.9892023801804, "label":"Midtown Metro Bicycles" },
{ "id":5032, "address":"560 Vanderbilt Av", "latitude":40.6798858642578, "longitude":-73.968391418457, "label":"BikeSmith" },
{ "id":5069, "address":"Governor's Island, Kimball Rd & Hay Rd", "latitude":40.7145500183105, "longitude":-74.0071182250977, "label":"Bike and Roll" },
{ "id":5036, "address":"468 Bergen St", "latitude":40.6807708740234, "longitude":-73.9758987426758, "label":"Ride Brooklyn" },
{ "id":5037, "address":"478 Myrtle Av", "latitude":40.6931953430176, "longitude":-73.9661636352539, "label":"Bikes on Myrtle" },
{ "id":5042, "address":"99 S 6th St", "latitude":40.7108879089355, "longitude":-73.9645309448242, "label":"Time's Up!" },
{ "id":5074, "address":"224 E 13th St", "latitude":40.731990814209, "longitude":-73.9868469238281, "label":"B-Fold" },
{ "id":5065, "address":"Pier 84, 557 12th Av", "latitude":40.7145500183105, "longitude":-74.0071182250977, "label":"Bike and Roll" },
{ "id":5079, "address":"867 Broadway", "latitude":40.7377319335938, "longitude":-73.9905471801758, "label":"Paragon Sports" },
{ "id":5078, "address":"546 6th Av", "latitude":40.7377853393555, "longitude":-73.9961395263672, "label":"6th Ave Metro Bicycles" },
{ "id":5080, "address":"332 E 14th St", "latitude":40.7315444946289, "longitude":-73.9838180541992, "label":"14th Street Metro Bicycles" },
{ "id":5081, "address":"151 W 19th St", "latitude":40.7414588928223, "longitude":-73.996452331543, "label":"Sid's Bike Shop" },
{ "id":5086, "address":"75 Varick St", "latitude":40.7233390957117, "longitude":-74.0062464773655, "label":"Canal St Metro Bicycles" },
{ "id":5043, "address":"279 Bushwick Av", "latitude":40.7065350562334, "longitude":-73.9395982772112, "label":"Zukkie's Bike Shop" },
{ "id":5084, "address":"244 Lafayette St", "latitude":40.7227416336536, "longitude":-73.9970169961452, "label":"Bicycle Habitat" },
{ "id":5050, "address":"105 W 106th St", "latitude":40.7993897795677, "longitude":-73.9630924165249, "label":"Innovation Bike Shop" },
{ "id":5077, "address":"175 Stanton St", "latitude":40.7199401855469, "longitude":-73.9842758178711, "label":"Chari & Co." },
{ "id":5085, "address":"34 Irving Pl", "latitude":40.7353889197111, "longitude":-73.9876721799374, "label":"Spokesman Cycles" },
{ "id":5090, "address":"64 2nd Av", "latitude":40.7258186340332, "longitude":-73.9893112182617, "label":"NYC Velo" },
{ "id":5089, "address":"141 E 17th St", "latitude":40.7356338500977, "longitude":-73.9862518310547, "label":"Manhattan Velo" },
{ "id":5091, "address":"199 Av B", "latitude":40.7284355163574, "longitude":-73.978759765625, "label":"Continuum Cycles" },
{ "id":5095, "address":"139 Charles St", "latitude":40.7342796325684, "longitude":-74.0080413818359, "label":"Hudson Urban Bicycles (HUB)" },
{ "id":5096, "address":"2119 Frederick Douglass Blvd", "latitude":40.8035888671875, "longitude":-73.9563827514648, "label":"ModSquad Cycles" },
{ "id":5049, "address":"1820 Amsterdam Av", "latitude":40.8288421630859, "longitude":-73.9453735351563, "label":"Junior Bicycle Shop" },
{ "id":5059, "address":"1400 3rd Av", "latitude":40.7746712118387, "longitude":-73.9570795744658, "label":"Bicycles NYC" },
{ "id":5097, "address":"391 West St", "latitude":40.7328681945801, "longitude":-74.0101852416992, "label":"Waterfront Bike Shop" },
{ "id":5092, "address":"480 10th Av", "latitude":40.7563007622957, "longitude":-73.9978297054768, "label":"Enoch's Bike Shop" },
{ "id":5060, "address":"1306 2nd Av", "latitude":40.7665214538574, "longitude":-73.9596557617188, "label":"Pedal Pusher Bikes" },
{ "id":5103, "address":"147 Reade St", "latitude":40.7164324074984, "longitude":-74.0098848938942, "label":"Adeline Adeline" },
{ "id":5102, "address":"134 W 24th St", "latitude":40.7439639419317, "longitude":-73.9933826029301, "label":"Zen Bikes" },
{ "id":5101, "address":"693 10th Av", "latitude":40.7631607055664, "longitude":-73.9933013916016, "label":"Al's Cycle Solutions" },
{ "id":5038, "address":"269 Baltic Street", "latitude":40.6857414245605, "longitude":-73.9938125610352, "label":"Rolling Orange" },
{ "id":5061, "address":"348 E 62nd St", "latitude":40.7615814208984, "longitude":-73.96142578125, "label":"My Bike Heaven" },
{ "id":5107, "address":"250 W 49th St", "latitude":40.7611589133739, "longitude":-73.9854982495308, "label":"NYC Bicycle Shop" },
{ "id":5071, "address":"315 W 38th St", "latitude":40.7549791038036, "longitude":-73.9921347051859, "label":"City Bicycles" },
{ "id":5108, "address":"348 W 57th St", "latitude":40.7672696560621, "longitude":-73.9842979609966, "label":"Bike Rental Central Park" },
{ "id":5044, "address":"189 Richards St", "latitude":40.6754188537598, "longitude":-74.012077331543, "label":"Red Hook Bike Shop" },
{ "id":5098, "address":"2001 5th Av", "latitude":40.8057174682617, "longitude":-73.9424057006836, "label":"Halem Bike Doctors" },
{ "id":5048, "address":"4125 Broadway", "latitude":40.8457242697477, "longitude":-73.9386434108019, "label":"Victor's Bike Repair" },
{ "id":5054, "address":"490 Amsterdam Av", "latitude":40.7862663269043, "longitude":-73.976448059082, "label":"Eddie's Bicycle Shop" },
{ "id":5099, "address":"96 Elizabeth St", "latitude":40.7186358422041, "longitude":-73.9957033842802, "label":"New Bo Bo Toys" },
{ "id":5066, "address":"NE Corner of Columbus Circle, W 59th St & 8th Av", "latitude":40.7145500183105, "longitude":-74.0071182250977, "label":"Bike and Roll" },
{ "id":5109, "address":"134 Division St", "latitude":40.7144864648581, "longitude":-73.9917156100273, "label":"Dah Shop" },
{ "id":5112, "address":"117 W 58th St", "latitude":40.7654609680176, "longitude":-73.9772415161133, "label":"Sayat Bike Rental" },
{ "id":5076, "address":"110 West End Av", "latitude":40.7750333100557, "longitude":-73.9878880977631, "label":"Toga Bike Shop" },
{ "id":5113, "address":"35-01 23rd Av", "latitude":40.773014947772, "longitude":-73.9109288156033, "label":"Tony's Bicycles" },
{ "id":5100, "address":"530 Broadway", "latitude":40.7230262756348, "longitude":-73.9984130859375, "label":"Eastern Mountain Sports" },
{ "id":5104, "address":"51 8th Av", "latitude":40.7383219152689, "longitude":-74.0040202438831, "label":"Echelon Cycles" },
{ "id":5115, "address":"63-24 Roosevelt Av", "latitude":40.7458220422268, "longitude":-73.9007431268692, "label":"Bill's Cyclery" },
{ "id":5114, "address":"37-19 28th Av", "latitude":40.7661525160074, "longitude":-73.915024548769, "label":"Bike Stop" },
{ "id":5120, "address":"42-20 111th St", "latitude":40.750003606081, "longitude":-73.85508723557, "label":"Cigi Bicycle Shop" },
{ "id":5083, "address":"106 Ridge St", "latitude":40.718692779541, "longitude":-73.9831314086914, "label":"Bike Works" },
{ "id":5110, "address":"287-B Broome St", "latitude":40.7184749096632, "longitude":-73.9915627241135, "label":"MNC e-Bikes" },
{ "id":5082, "address":"75 Av C", "latitude":40.7231238484383, "longitude":-73.9796255528927, "label":"Recycle-a-Bicycle" },
{ "id":5072, "address":"25 Tudor City Pl", "latitude":40.7486305236816, "longitude":-73.9704971313477, "label":"Conrad's Bike Shop" },
{ "id":5119, "address":"92-64 Queens Blvd", "latitude":40.7320663332939, "longitude":-73.8675494492054, "label":"Metropolis Bicycles" },
{ "id":5118, "address":"91-07 37th Av", "latitude":40.7506976276636, "longitude":-73.8757442682981, "label":"Cigi Bicycle Shop II" },
{ "id":5124, "address":"42-42 235th St", "latitude":40.7676766812801, "longitude":-73.748022839427, "label":"Peak Mountain Bike Pro Shop" },
{ "id":5125, "address":"80-16 Cooper Av", "latitude":40.7094975560904, "longitude":-73.8693572580814, "label":"Spokesman Cycles" },
{ "id":5131, "address":"169-20 Jamaica Av", "latitude":40.70695951581, "longitude":-73.7904446572065, "label":"Bellitte Bicycles" },
{ "id":5129, "address":"79-06 Jamaica Av", "latitude":40.6919652968645, "longitude":-73.8629917055368, "label":"Hardware City Ltd." },
{ "id":5087, "address":"553 Grand St", "latitude":40.7140378654003, "longitude":-73.9803437143564, "label":"Frank's Bike Shop" },
{ "id":5130, "address":"114-01 Jamaica Av", "latitude":40.6983167678118, "longitude":-73.8346541672945, "label":"ADT Bike & Skate" },
{ "id":5088, "address":"112 W Broadway", "latitude":40.7163224369287, "longitude":-74.0086564421654, "label":"Gotham Bike Shop" },
{ "id":5106, "address":"2131 2nd Av", "latitude":40.7930183410645, "longitude":-73.9410400390625, "label":"Eduardo's Bicycle Shop" },
{ "id":5135, "address":"40-21A 35th Av", "latitude":40.7624092102051, "longitude":-73.9245071411133, "label":"Bicycle Repairman Corp." },
{ "id":5136, "address":"49-04 Vernon Blvd", "latitude":40.7432826608419, "longitude":-73.9539816230536, "label":"Spokesman Cycles" },
{ "id":5140, "address":"4026 Hylan Blvd", "latitude":40.5412750244141, "longitude":-74.1464004516602, "label":"The Bike Shop" },
{ "id":5137, "address":"40-6 Case St", "latitude":40.7463493347168, "longitude":-73.8723831176758, "label":"Almacen El Pedal" },
{ "id":5141, "address":"476 5th Av", "latitude":40.6682662963867, "longitude":-73.9874114990234, "label":"Bicycle Habitat" },
{ "id":5143, "address":"376 Mother Gaston Blvd", "latitude":40.6698570251465, "longitude":-73.9071502685547, "label":"Brownsville Bike Shop" },
{ "id":5142, "address":"316 E 49th St", "latitude":40.753662109375, "longitude":-73.9681930541992, "label":"Kickstand Bicycles" },
{ "id":5149, "address":"76 Franklin St", "latitude":40.7272109985352, "longitude":-73.9568481445313, "label":"Silk Road Cycles" },
{ "id":5146, "address":"252 S 4th St", "latitude":40.709846496582, "longitude":-73.9580535888672, "label":"Different Spokes" },
{ "id":5147, "address":"636 Lorimer St", "latitude":40.7159309387207, "longitude":-73.9493865966797, "label":"Brooklyn Bike Peddler" },
{ "id":5111, "address":"Pier 78, Hudson River Greenway", "latitude":40.7145500183105, "longitude":-74.0071182250977, "label":"Blazing Saddles" },
{ "id":5148, "address":"4176 Bedford Av", "latitude":40.6001633405685, "longitude":-73.946730941534, "label":"Ride Bike Pro Gear" },
{ "id":5116, "address":"70-13 Grand Av", "latitude":40.7276359945536, "longitude":-73.8926327973604, "label":"Grand Bicycle Center" },
{ "id":5152, "address":"537 Empire Blvd", "latitude":40.6642030924559, "longitude":-73.9444396644831, "label":"CH Cycles" },
{ "id":5122, "address":"45-70 Kissena Blvd", "latitude":40.7507512718439, "longitude":-73.819337412715, "label":"Kissena Bicycle Center" },
{ "id":5153, "address":"East River Greenway, between E Houston St & E 6th St Entrances", "latitude":40.7145500183105, "longitude":-74.0071182250977, "label":"Bike and Roll" },
{ "id":5126, "address":"98-73 Queens Blvd", "latitude":40.7188720703125, "longitude":-73.8379440307617, "label":"Spin City Cycle" },
{ "id":5132, "address":"107-34 Springfield Blvd", "latitude":40.7099039107561, "longitude":-73.7376748770475, "label":"Bicycle Barn" },
{ "id":5155, "address":"360 E 65th St", "latitude":40.7637244462967, "longitude":-73.9602164179087, "label":"Ciel Bicycles" },
{ "id":5158, "address":"1337 Fulton St", "latitude":40.680477142334, "longitude":-73.9479522705078, "label":"Ride" },
{ "id":5154, "address":"West Harlem Piers Park, Hudson River Greenway at W 135th St", "latitude":40.7145500183105, "longitude":-74.0071182250977, "label":"Bike and Roll" },
{ "id":5093, "address":"136 E 3rd St", "latitude":40.7238768786192, "longitude":-73.9859502017498, "label":"Landmark Bicycles" },
{ "id":5144, "address":"2450 7th Av", "latitude":40.8201641589403, "longitude":-73.940324485302, "label":"Pedal Universe" },
{ "id":5161, "address":"4202 3rd Av", "latitude":40.6522941589355, "longitude":-74.0104141235352, "label":"Greenpath Electric Bikes" },
{ "id":5159, "address":"313 E 60th St", "latitude":40.7610740661621, "longitude":-73.9629135131836, "label":"Spokesman Cycles" },
{ "id":5160, "address":"1345 DeKalb Av", "latitude":40.6987266540527, "longitude":-73.9251098632813, "label":"Bushwick Bike Shop" },
{ "id":5167, "address":"1050 Bedford Av", "latitude":40.6890029907227, "longitude":-73.9553298950195, "label":"Bike Slug" },
{ "id":5165, "address":"301 W 110th Street", "latitude":40.8010902404785, "longitude":-73.9585876464844, "label":"Larry's Freewheeling" },
{ "id":5164, "address":"Riverside Drive and W 72nd Street", "latitude":40.7803345072166, "longitude":-73.9856852377778, "label":"Bike and Roll" },
{ "id":5166, "address":"997 Fulton St", "latitude":40.6828460693359, "longitude":-73.9629974365234, "label":"Fulton Bikes" },
{ "id":5150, "address":"376 Bedford Av", "latitude":40.7115058898926, "longitude":-73.9635162353516, "label":"Landmark Bicycles" },
{ "id":5151, "address":"115 Van Brunt St", "latitude":40.6845817565918, "longitude":-74.0051727294922, "label":"Dog Day Cyclery" },
{ "id":5170, "address":"121 Knickerbocker Ave", "latitude":40.7049847394228, "longitude":-73.9291155338287, "label":"North Brooklyn Collective" },
{ "id":5172, "address":"165 Front Street", "latitude":40.7024487107992, "longitude":-73.9865161478519, "label":"Redbeard Bikes" },
{ "id":5171, "address":"154 Prospect Park Southwest", "latitude":40.6548767089844, "longitude":-73.9737014770508, "label":"Juice Pedaler" },
{ "id":5156, "address":"303 Lafayette St", "latitude":40.7247445732355, "longitude":-73.9955370873213, "label":"REI" },
{ "id":5105, "address":"203 W 58th St", "latitude":40.7663375884295, "longitude":-73.9797569811344, "label":"SBR MultiSports/Central Park Bike Tours" },
{ "id":5174, "address":"56 W 56th St", "latitude":40.7631454467773, "longitude":-73.9770812988281, "label":"Central Park Sightseeing" },
{ "id":5175, "address":"313 W 37th St", "latitude":40.7546501159668, "longitude":-73.992805480957, "label":"Smart NY, Inc." },
{ "id":5176, "address":"87 South St", "latitude":40.7056884765625, "longitude":-74.0040283203125, "label":"NYC Bicycle Rentals" },
{ "id":5094, "address":"130 W 26th St", "latitude":40.7451591491699, "longitude":-73.9928588867188, "label":"Chelsea Bicycles" },
{ "id":5117, "address":"25-11 Queens Plaza N", "latitude":40.7524681091309, "longitude":-73.943717956543, "label":"LIC Bicycles" },
{ "id":5128, "address":"82-34 Lefferts Blvd", "latitude":40.7068676501513, "longitude":-73.8317976146936, "label":"Gray's Bicycle" },
{ "id":5133, "address":"232-20 Merrick Blvd", "latitude":40.6750452518463, "longitude":-73.7375769764185, "label":"Laurelton Bicycle & Carriage Shop" },
{ "id":5145, "address":"345 Myrtle Av", "latitude":40.6934585571289, "longitude":-73.9724273681641, "label":"Red Lantern Bicycles" },
{ "id":5180, "address":"694 Franklin Ave", "latitude":40.6747512817383, "longitude":-73.9567565917969, "label":"Excelsior Bike Shop" },
{ "id":5179, "address":"176 E 110th St", "latitude":40.7944075763226, "longitude":-73.9435800164938, "label":"La Huerta Mexicana" },
{ "id":5162, "address":"149 Smith St", "latitude":40.6865196228027, "longitude":-73.9904327392578, "label":"BikeSmith" },
{ "id":5169, "address":"240 E 23rd St", "latitude":40.7379150390625, "longitude":-73.9817123413086, "label":"Danny's Cycles" },
{ "id":5181, "address":"1178 Bay St", "latitude":40.6143569946289, "longitude":-74.0666656494141, "label":"NYC Bicycle Shop" },
{ "id":5138, "address":"39-24D 108th St", "latitude":40.7425346374512, "longitude":-73.8588027954102, "label":"Elias Bicycle Shop" },
{ "id":5139, "address":"571 Jewett Av", "latitude":40.6228655576706, "longitude":-74.132010564208, "label":"Bennett's Bicycles" },
{ "id":5121, "address":"14-18 150th St", "latitude":40.7883182913065, "longitude":-73.8136692345142, "label":"Century Bicycle Shop" },
{ "id":5123, "address":"33-13 Francis Lewis Blvd", "latitude":40.7672562450171, "longitude":-73.7902850657701, "label":"Roberts Bicycle" },
{ "id":5127, "address":"75-20 Metropolitan Av", "latitude":40.7129745483398, "longitude":-73.8769226074219, "label":"Twin Bicycles" },
{ "id":5134, "address":"430 Beach 129th St", "latitude":40.578685760498, "longitude":-73.849235534668, "label":"Mini Mall" },
{ "id":5163, "address":"308 Irving Av", "latitude":40.6987419128418, "longitude":-73.914306640625, "label":"Bushwick Bicycles" },
{ "id":5157, "address":"2152 Broadway", "latitude":40.781429708004, "longitude":-73.9809961616993, "label":"Eastern Mountain Sports" },
{ "id":5168, "address":"1375 Bay St", "latitude":40.6102104187012, "longitude":-74.0629501342773, "label":"Bay Street Bicycles" },
{ "id":5177, "address":"40 W 55th St", "latitude":40.7621841430664, "longitude":-73.9767379760742, "label":"Rent-A-Bike Central Park" },
{ "id":5178, "address":"34 North 7th St", "latitude":40.7199628651142, "longitude":-73.9612383395433, "label":"Ride Brooklyn" },
{ "id":5182, "address":"43 Avenue A", "latitude":40.7239685058594, "longitude":-73.9854736328125, "label":"Landmark Bicycles" },
{ "id":5173, "address":"390 Van Brunt St", "latitude":40.6766666471958, "longitude":-74.0137566626072, "label":"Papillionaire" }
]
,"lastUpdate": 1367853737}